<opencorrespondence>
<location><place>Adelphi Hotel, Ranelagh Place,
Liverpool, Merseyside L3 5UL</place><lat>53.405089</lat><lon>-2.977404</lon><url>Adelphi_Hotel</url><source>http://en.wikipedia.org/wiki/Britannia_Adelphi_Hotel</source></location>
<location><place>Albaro, Genoa</place><lat>44.2440</lat><lon>8.5558</lon><url>Albaro</url><source>http://en.wikipedia.org/wiki/Albaro</source></location>
<location><place>Villa Di Bagnarello, Albaro, Genoa</place><lat>44.2440</lat><lon>8.5558</lon><url>Villa_Di_Bagnarello_Albaro</url><source>http://www.victorianweb.org/authors/dickens/gallery/genoa.html</source></location>
<location><place>Albion Hotel, 6-12 Albion Street, Broadstairs, CT10 1AN</place><lat>51.358607</lat><lon>1.442359</lon><url>Albion_Hotel_Broadstairs</url><source>http://www.albionbroadstairs.co.uk/</source></location>
<location><place>Allonby, Cumberland</place><lat>54.685659</lat><lon>-3.519317</lon><url>Allonby_Cumberland</url><source>http://www.visionofbritain.org.uk/place/place_page.jsp?p_id=3741</source></location>
<location><place>Birmingham Station, Birmingham</place><lat>52.477662</lat><lon>-1.898012</lon><url>Birmingham_Station</url></location>
<location><place>Athenaeum Club, Pall Mall, London</place><lat>51.506839</lat><lon>-0.132734</lon><url>Athenaeum_Club_London</url><soource>http://www.athenaeumclub.co.uk/</source></location>
<location><place>Baltimore</place><lat>39.17</lat><lon>-76.37</lon><url>Baltimore</url><source>http://en.wikipedia.org/wiki/Baltimore</source><desc>A city in Maryland</desc></location>
<location><place>Bath</place><lat>51.384400</lat><lon>-2.363221</lon><url>Bath</url><source>http://en.wikipedia.org/wiki/Bath,_Somerset</source></location>
<location><place>Bedford Hotel, Brighton</place><lat>50.82194</lat><lon>-0.15222</lon><url>Bedford_Hotel_Brighton</url><source>http://en.wikipedia.org/wiki/Bedford_Hotel_%28Brighton%29</source></location>
<location><place>Belfast</place><lat>54.595</lat><lon>-5.937</lon><url>Belfast</url><source>http://en.wikipedia.org/wiki/Belfast</source></location>
<location><place>Berwick on Tweed</place><lat>55.771</lat><lon>-2.007</lon><url>Berwick-on-tweed</url><source>http://en.wikipedia.org/wiki/Berwick-upon-Tweed</source></location>
<location><place>Bideford, North Devon</place><lat>51.0162</lat><lon>-4.2171</lon><url>Bideford_North_Devon</url><source>http://en.wikipedia.org/wiki/Bideford</source></location>
<location><place>Boston</place><lat>42.3583333</lat><lon>-71.0602778</lon><url>Boston</url><source>http://en.wikipedia.org/wiki/Boston</source></location>
<location><place>Birmingham</place><lat>52.477662</lat><lon>-1.898012</lon><url>Birmingham</url><source>http://en.wikipedia.org/wiki/Birmingham</source></location>
<location><place>Boulogne</place><lat>50.726389</lat><lon>1.614722</lon><url>Boulogne</url><source>http://en.wikipedia.org/wiki/Boulogne-sur-Mer</source></location>
<location><place>Villa Des Moulineaux, Boulogne</place><lat>50.726389</lat><lon>1.614722</lon><url>Villa_Des_Moulineaux_Boulogne</url></location>
<location><place>Bradford</place><lat>53.8</lat><lon>-1.75206</lon><url>Bradford_Yorkshire</url><source>http://en.wikipedia.org/wiki/Bradford</source></location>
<location><place>Bridge of Allan</place><lat>56.1549</lat><lon>-3.94152</lon><url>Bridge_Of_Allan</url><source>http://en.wikipedia.org/wiki/Bridge_of_Allan</source></location>
<location><place>Junction House, Brighton</place><lat>56.1549</lat><lon>-3.94152</lon><url>Junction_House_Brighton</url></location>
<location><place>Broadstairs</place><lat>51.35888</lat><lon>1.43944</lon><url>Broadstairs</url><source>http://en.wikipedia.org/wiki/Broadstairs</source></location>
<location><place>Camden Crescent, Dover</place><lat /><long /><url>Camden_Crescent_Dover</url></location>
<location><place>Champs Elysees, Paris</place><lat /><long /><url>Champs_Elysees_Paris</url><source>http://en.wikipedia.org/wiki/Champs-%C3%89lys%C3%A9es</source></location>
<location><place>Carlton House</place><lat>51.50635</lat><lon>-0.131842</lon><url>Carlton_House</url><source>http://en.wikipedia.org/wiki/Carlton_House,_London</source></location>
<location><place>Carricks Royal Hotel, Glasgow</place><url>Carricks_Royal_Hotel_Glasgow</url><lat>55.858</lat><lon>-4.259</lon></location>
<location><place>Cheltenham</place><lat>51.896389</lat><lon>-2.078333</lon><url>Cheltenham</url><source>http://en.wikipedia.org/wiki/Cheltenham</source></location>
<location><place>Cincinnati</place><lat>39.1619444</lat><lon>-84.4569444</lon><url>Cincinnati_Ohio</url><source>http://en.wikipedia.org/wiki/Cincinnati</source></location>
<location><place>Clifton</place><lat>51.4612</lat><lon>-2.6188</lon><url>Clifton</url><source>http://en.wikipedia.org/wiki/Clifton,_Bristol</source></location>
<location><place>Covent Garden</place><lat>51.51197</lat><lon>-0.1228</lon><url>Covent_Garden</url><source>http://en.wikipedia.org/wiki/Covent_Garden</source></location>
<location><place>Cremona</place><lat>45.133333</lat><lon>10.033333</lon><url>Cremona</url><source>http://en.wikipedia.org/wiki/Cremona</source></location>
<location><place>Croce Di Malta, Genoa</place><lat/><lon/><url>Croce_Di_Malta_Geno</url></location>
<location><place>Devonshire Terrace, London</place><lat>51.514125</lat><lon>-0.180342</lon><url>Devonshire_Terrace_London</url></location>
<location><place>Doughty Street</place><lat>51.523333</lat><lon>-0.116667</lon><url>Doughty_Street</url></location>
<location><place>Dover</place><lat>51.1295</lat><lon>1.3089</lon><url>Dover</url><source>http://en.wikipedia.org/wiki/Dover</source></location>
<location><place>Edinburgh</place><lat>55.949444</lat><lon>-3.160278</lon><url>Edinburgh</url><source>http://en.wikipedia.org/wiki/Edinburgh</source></location>
<location><place>Kennedys Hotel, Edinburgh</place><lat>55.949444</lat><lon>-3.160278</lon><url>Kennedys_Hotel_Edinburgh</url></location>

<location><place>Waterloo Hotel, Edinburgh</place><lat>55.949444</lat><lon>-3.160278</lon><url>Waterloo_Hotel_Edinburgh</url></location>

<location><place>Elm Cottage, Petersham</place><lat>51.446358</lat><lon>-0.303326</lon><url>Elm_Cottage_Petersham</url><source>http://en.wikipedia.org/wiki/Petersham</source></location>
<location><place>Florence</place><lat>43.783333</lat><lon>11.25</lon><url>Florence</url><source>http://en.wikipedia.org/wiki/Florence</source></location>
<location><place>Folkestone</place><lat>51.081</lat><lon>1.166</lon><url>Folkestone</url><source>http://en.wikipedia.org/wiki/Folkestone</source></location>
<location><place>Fountain Hotel, Canterbury</place><lat>51.275</lat><lon>1.087</lon><url>Fountain_Hotel_Canterbury</url></location>
<location><place>Fribourg</place><lat>46.8</lat><lon>7.15</lon><url>Fribourg</url><source>http://en.wikipedia.org/wiki/Fribourg</source></location>
<location><place>Fullers Hotel, Washington</place><lat>38.895</lat><lon>-77.0366667</lon><url>Fullers_Hotel_Washington</url></location>
<location><place>Furnival's Inn</place><lat>51.5182</lat><lon>-0.1099</lon><url>Furnivals_Inn</url><source>http://en.wikipedia.org/wiki/Furnival%27s_Inn</source></location>
<location><place>Geneva</place><lat>46.2</lat><lon>6.15</lon><url>Geneva</url><source>http://en.wikipedia.org/wiki/Geneva</source></location>
<location><place>Gravesend, Kent</place><lat>51.4415</lat><lon>0.3685</lon><url>Gravesend_Kent</url><source>http://en.wikipedia.org/wiki/Gravesend,_Kent</source></location>
<location><place>Great Malvern</place><lat>52.11</lat><lon>-2.33</lon><url>Great_Malvern</url><source>http://en.wikipedia.org/wiki/Great_Malvern</source></location>
<location><place>Greta Bridge</place><lat>54.51336</lat><lon>-1.86715</lon><url>Greta_Bridge</url><source>http://en.wikipedia.org/wiki/Greta_Bridge</source></location>
<location><place>Hanover Terrace</place><lat></lat><lon>-0.156667</lon><url>Hanover_Terrace</url><source>http://en.wikipedia.org/wiki/Regent%27s_Park</source></location>
<location><place>Hotel De La Ville, Milan</place><lat>45.464167</lat><lon>9.190278</lon><url>Hotel_De_La_Ville_Milan</url><source>http://en.wikipedia.org/wiki/Milan</source></location>
<location><place>Hotel Du Helder, Paris</place><lat>48.871944</lat><lon>2.315</lon><url>Hotel_Du_Helder_Paris</url><source>http://en.wikipedia.org/wiki/Paris</source></location>
<location><place>Hotel Bristol Paris</place><lat>48.871944</lat><lon>2.315</lon><url>Hotel_Bristol_Paris</url><source>http://en.wikipedia.org/wiki/Paris</source></location>

<location><place>Hotel Des Bains, Boulogne</place><lat /><lon /><url>Hotel_Des_Bains_Boulogne</url><source>http://en.wikipedia.org/wiki/Boulogne_sur_Mer</source></location>
<location><place>Hotel Meurice, Paris</place><lat>48.871944</lat><lon>2.315</lon><url>Hotel_Meurice_Paris</url><source>http://en.wikipedia.org/wiki/Paris</source></location>
<location><place>Hotel Wagram Paris</place><lat>48.871944</lat><lon>2.315</lon><url>Hotel_Wagram_Paris</url><source>http://en.wikipedia.org/wiki/Paris</source></location>
<location><place>Hotel Windsor Paris</place><lat>48.871944</lat><lon>2.315</lon><url>Hotel_Windsor_Paris</url><source>http://en.wikipedia.org/wiki/Paris</source></location>
<location><place>Rue de Courcelles, Paris</place><lat>48.871944</lat><lon>2.315</lon><url>Rue_De_Courcelles_Paris</url><source>http://en.wikipedia.org/wiki/Paris</source></location>
<location><place>Hyde Park Place</place><lat /><lon /><url>Hyde_Park_Place</url><source>http://en.wikipedia.org/wiki/Hyde_Park,_London</source></location>
<location><place>Milan</place><lat>45.464167</lat><lon>9.190278</lon><url>Milan</url><source>http://en.wikipedia.org/wiki/Milan</source></location>
<location><place>Paris</place><lat>48.856667</lat><lon>2.350833</lon><url>Paris</url><source>http://en.wikipedia.org/wiki/Paris</source></location>
<location><place>Imperial Hotel, Blackpool</place><lat>53.814167</lat><lon>-3.050278</lon><url>Imperial_Hotel_Blackpool</url><source>http://en.wikipedia.org/wiki/Blackpool</source></location>
<location><place>Kings Head, Sheffield</place><lat>53.383611</lat><lon>-1.466944</lon><url>Kings_Head_Sheffield</url><source>http://en.wikipedia.org/wiki/Sheffield</source></location>
<location><place>Lancaster</place><lat>54.047</lat><lon>-2.801</lon><url>Lancaster</url><source>http://en.wikipedia.org/wiki/Lancaster,_Lancashire</source></location>
<location><place>Leeds</place><lat>53.799722</lat><lon>-1.549167</lon><url>Leeds</url><source>http://en.wikipedia.org/wiki/Leeds</source></location>
<location><place>Lincolns_Inn_Fields</place><lat/><lon/><url>Lincolns_Inn_Fields</url><source>http://en.wikipedia.org/wiki/Lincoln%27s_Inn_Fields</source></location>
<location><place>Lion Hotel, Shrewsbury</place><lat>52.7077</lat><lon>-2.7541</lon><url>Lion_Hotel_Shrewsbury</url><source>http://en.wikipedia.org/wiki/Shrewsbury</source></location>
<location><place>Liverpool</place><lat>53.4</lat><lon>-3</lon><url>Liverpool</url><source>http://en.wikipedia.org/wiki/Liverpool</source></location>
<location><place>Radley's Hotel, Liverpool</place><lat>53.4</lat><lon>-3</lon><url>Radleys_Hotel_Liverpool</url><source>http://en.wikipedia.org/wiki/Liverpool</source></location>
<location><place>London</place><lat>51.507222</lat><lon>-0.1275</lon><url>London</url><source>http://en.wikipedia.org/wiki/London</source></location>
<location><place>Manchester</place><lat>53.466667</lat><lon>-2.233333</lon><url>Manchester</url><source>http://en.wikipedia.org/wiki/Manchester</source></location>
<location><place>Queen's Hotel, Manchester</place><lat>53.466667</lat><lon>-2.233333</lon><url>Queens_Hotel_Manchester</url><source>http://en.wikipedia.org/wiki/Manchester</source></location>
<location><place>Montreal</place><lat>45.508889</lat><lon>-73.554167</lon><url>Montreal</url><source>http://en.wikipedia.org/wiki/Montreal</source></location>
<location><place>Morrisons Hotel, Dublin</place><lat>53.347778</lat><lon>-6.259722</lon><url>Morrisons_Hotel_Dublin</url><source>http://en.wikipedia.org/wiki/Dublin</source></location>
<location><place>Shelbourne Hotel, Dublin</place><lat>53.347778</lat><lon>-6.259722</lon><url>Shelbourne_Hotel_Dublin</url><source>http://en.wikipedia.org/wiki/Dublin</source></location>
<location><place>Naples</place><lat/><lon/><url>Naples</url><source>http://en.wikipedia.org/wiki/Naples</source></location>
<location><place>New York</place><lat>40.716667</lat><lon>-74</lon><url>New_York</url><source>http://en.wikipedia.org/wiki/New_York</source></location>
<location><place>Newcastle on Tyne</place><lat>54.974</lat><lon>-1.6132</lon><url>Newcastle-on-tyne</url><source>http://en.wikipedia.org/wiki/Newcastle_upon_Tyne</source></location>
<location><place>Queen's Hotel, Newcastle</place><lat>54.974</lat><lon>-1.6132</lon><url>Queens_Hotel_Newcastle</url><source>http://en.wikipedia.org/wiki/Newcastle_upon_Tyne</source></location>
<location><place>Norwich</place><lat>52.628333</lat><lon>1.296667</lon><url>Norwich</url><source>http://en.wikipedia.org/wiki/Norwich</source></location>
<location><place>Old Ship Hotel, Brighton</place><lat>50.842941</lat><lon>-0.131312</lon><url>Old_Ship_Hotel_Brighton</url><source>http://en.wikipedia.org/wiki/Brighton</source></location>
<location><place>Boston</place><lat>42.357778</lat><lon>-71.061667</lon><url>Boston</url><source>http://en.wikipedia.org/wiki/Boston</source></location>
<location><place>Parker House, Boston</place><lat>42.357778</lat><lon>-71.061667</lon><url>Parker_House_Boston</url><source>http://en.wikipedia.org/wiki/Boston</source></location>
<location><place>Tremont House, Boston</place><lat>42.357778</lat><lon>-71.061667</lon><url>Tremont_House_Boston</url><source>http://en.wikipedia.org/wiki/Boston</source></location>
<location><place>Parma</place><lat>44.8</lat><lon>10.333333</lon><url>Parma</url></location>
<location><place>Albergo dell Posta, Parma</place><lat>44.8</lat><lon>10.333333</lon><url>Parma_Albergo_Della_Posta</url><source>http://en.wikipedia.org/wiki/Parma</source></location>
<location><place>Preston</place><lat>53.759</lat><lon>-2.699</lon>http://en.wikipedia.org/wiki/Preston</location>
<location><place>Regents Street, London</place><lat>51.5108</lat><lon>-0.1387</lon><url>Regents_Street</url><source>http://en.wikipedia.org/wiki/Regent_Street</source></location>
<location><place>Regent's Park</place><lat>51.532222</lat><lon>-0.156667</lon><url>Regents_Park</url><source>http://en.wikipedia.org/wiki/Regent_Park</source></location>
<location><place>Rochester</place><lat>51.3883</lat><lon>0.4982</lon><url>Rochester</url><source>http://en.wikipedia.org/wiki/Rochester,_Kent</source></location>
<location><place>Rome</place><lat>41.9</lat><lon>12.5</lon><url>Rome</url><source>http://en.wikipedia.org/wiki/Rome</source></location>
<location><place>Derby</place><lat>52.921944</lat><lon>-1.475833</lon><url>Derby</url><source>http://en.wikipedia.org/wiki/Derby</source></location>
<location><place>Shanklin, Isle of Wight</place><lat>50.631</lat><lon>-1.1734</lon><url>Shanklin_Isle_Of_Wight</url><source>http://en.wikipedia.org/wiki/Shanklin</source></location>
<location><place>Station Hotel, York</place><lat>53.9583</lat><lon>-1.093</lon><url>Station_Hotel_York</url><source>http://en.wikipedia.org/wiki/York</source></location>
<location><place>Syracuse</place><lat>43.046899</lat><lon>-76.144423</lon><url>Syracuse</url><source>http://en.wikipedia.org/wiki/Syracuse,_New_York</source></location>
<location><place>Great White Horse, Ipswich</place><lat>52.059444</lat><lon>1.155556</lon><url>The_Great_White_Horse_Ipswich</url><source>http://en.wikipedia.org/wiki/Ipswich</source></location>
<location><place>Torquay</place><lat>50.4792</lat><lon>-3.5305</lon> <url>Torquay</url><source>http://en.wikipedia.org/wiki/Torquay</source></location>
<location><place>Twickenham Park</place><lat>51.4486</lat><lon>-0.3369</lon><url>Twickenham_Park</url><source>http://en.wikipedia.org/wiki/Twickenham</source></location>
<location><place>Venice</place><lat>45.4375</lat><lon>12.335833</lon><url>Venice</url><source>http://en.wikipedia.org/wiki/Venice</source></location>
<location><place>Plymouth</place><lat>50.371397</lat><lon>-4.142431</lon><url>Plymouth</url><source>http://en.wikipedia.org/wiki/Plymouth</source></location>
<location><place>West Hoe, Plymouth</place><lat>50.371397</lat><lon>-4.142431</lon><url>West_Hoe_Plymouth</url><source>http://en.wikipedia.org/wiki/Plymouth</source></location>
<location><place>Winterbourne</place><lat>51.445</lat><lon>-1.346</lon><url>Winterbourne</url><source>http://en.wikipedia.org/wiki/Winterbourne,_Berkshire</source></location>
<location><place>Wolverhampton</place><lat>52.583333</lat><lon>-2.133333</lon><url>Wolverhampton</url><source>http://en.wikipedia.org/wiki/Wolverhampton</source></location>
<location><place>Springfield, Massachussets</place><lat /><lon /><url>Springfield_Mass</url><source>http://en.wikipedia.org/wiki/Springfield,_Massachusetts</source></location>
<location><place>Royal Hotel, Derby</place><lat /><long /><url>Royal_Hotel_Derby</url><source>http://en.wikipedia.org/wiki/Derby</source></location>
<location><place>Royal Hotel, Scarborough</place><lat>54.2773</lat><lon>-0.4017</lon><url>Royal_Hotel_Scarborough</url><source>http://en.wikipedia.org/wiki/Scarborough,_North_Yorkshire</source></location>
<location><place>Philadelphia</place><lat>39.95</lat><lon>-75.17</lon><url>Philadelphia</url><source>http://en.wikipedia.org/wiki/Philadelphia</source></location>
<location><place>Portland</place><lat>45.52</lat><lon>-122.681944</on><url>Portland</url><source>http://en.wikipedia.org/wiki/Portland,_Oregon</source></location>
<location><place>Rosemont</place><lat/><lon/><url>Rosemont</url></location>
<location><place>Osnaburgh Terrace, New Road</place><lat>528847</lat><lon>182273</lon><url>Osnaburgh_Terrace_New_Road</url></location>
</opencorrespondence>


